City_ID,City,Lat,Lng,Max Temp,Humidity,Cloudiness,Wind Speed,Country,Date
0,margate,51.3813,1.3862,14.980000000000018,60,57,5.36,GB,1712061578
1,ilulissat,69.2167,-51.1,-2.839999999999975,68,40,0.0,GL,1712061484
2,waitangi,-43.9535,-176.5597,11.720000000000027,93,100,2.05,NZ,1712061471
3,meggen,47.0469,8.3747,14.949999999999989,53,40,5.14,CH,1712061578
4,albany,42.6001,-73.9662,4.490000000000009,80,100,1.34,US,1712061258
5,stanley,54.868,-1.6985,12.20999999999998,81,75,1.03,GB,1712061473
6,port-aux-francais,-49.35,70.2167,8.439999999999998,89,100,13.53,TF,1712061323
7,qaqortoq,60.7167,-46.0333,-3.230000000000018,58,7,1.73,GL,1712061579
8,fort bragg,35.139,-79.006,21.370000000000005,83,73,1.79,US,1712061579
9,adamstown,-25.066,-130.1015,23.889999999999986,79,12,9.46,PN,1712061321
10,sao jose da coroa grande,-8.8978,-35.1478,30.850000000000023,64,52,1.78,BR,1712061580
11,mochudi,-24.4167,26.15,31.480000000000018,21,59,2.09,BW,1712061580
12,college,64.8569,-147.8028,-10.370000000000005,68,100,6.69,US,1712061359
13,nyala,12.05,24.8833,36.44,6,100,0.4,SD,1712061580
14,lompoc,34.6391,-120.4579,9.360000000000014,95,0,2.57,US,1712061580
15,hithadhoo,-0.6,73.0833,29.170000000000016,72,100,1.62,MV,1712061581
16,constantia,44.1833,28.65,23.529999999999973,39,80,9.83,RO,1712061581
17,new norfolk,-42.7826,147.0587,11.870000000000005,90,100,2.14,AU,1712061581
18,khandud,36.9513,72.318,0.7300000000000182,83,100,0.92,AF,1712061581
19,luwingu,-10.2621,29.9271,20.730000000000018,83,100,2.1,ZM,1712061581
20,boa vista,2.8197,-60.6733,29.139999999999986,58,100,3.6,BR,1712061363
21,punta arenas,-53.15,-70.9167,6.160000000000025,87,75,4.63,CL,1712061448
22,tateyama,34.9833,139.8667,13.54000000000002,76,100,5.33,JP,1712061582
23,cruzeiro do sul,-29.5128,-51.9853,21.0,93,100,1.68,BR,1712061582
24,port blair,11.6667,92.75,30.170000000000016,66,20,2.06,IN,1712061406
25,al 'amarah,31.8406,47.1396,32.18000000000001,13,84,2.18,IQ,1712061583
26,nova sintra,14.8667,-24.7167,20.00999999999999,79,1,8.43,CV,1712061583
27,talnakh,69.4865,88.3972,-14.149999999999977,96,100,1.31,RU,1712061583
28,hawaiian paradise park,19.5933,-154.9731,21.279999999999973,94,100,3.09,US,1712061584
29,novobelokatay,55.7062,58.9549,4.980000000000018,99,100,4.26,RU,1712061584
30,la passe,45.5549,-0.8967,17.279999999999973,56,100,8.03,FR,1712061477
31,miguel ahumada,30.6167,-106.5167,7.189999999999998,72,49,5.62,MX,1712061585
32,weno,7.4515,151.8468,29.120000000000005,89,75,4.12,FM,1712061585
33,blackmans bay,-43.0167,147.3167,11.220000000000027,91,100,0.89,AU,1712061474
34,ushuaia,-54.8,-68.3,5.9599999999999795,81,75,10.29,AR,1712061343
35,murun-kuren,49.6342,100.1625,3.019999999999982,46,10,2.43,MN,1712061585
36,kudat,6.8837,116.8477,29.110000000000014,84,1,3.09,MY,1712061586
37,atafu village,-8.5421,-172.5159,29.30000000000001,74,8,3.36,TK,1712061478
38,lebu,-37.6167,-73.65,14.279999999999973,93,100,12.32,CL,1712061586
39,kapuskasing,49.4169,-82.4331,-7.800000000000011,67,0,2.06,CA,1712061447
40,afaahiti,-17.75,-149.2833,25.079999999999984,80,84,9.16,PF,1712061587
41,port elizabeth,-33.918,25.5701,23.310000000000002,63,20,12.35,ZA,1712061587
42,eufaula,31.8913,-85.1455,20.329999999999984,94,100,0.0,US,1712061564
43,sitka,57.0531,-135.33,3.089999999999975,87,100,2.06,US,1712061356
44,grytviken,-54.2811,-36.5092,2.160000000000025,75,100,3.14,GS,1712061472
45,leua,48.2156,18.6071,15.430000000000007,54,100,8.78,SK,1712061587
46,kodiak,57.79,-152.4072,-7.1200000000000045,58,75,11.83,US,1712061480
47,puerto ayora,-0.7393,-90.3518,23.230000000000018,97,96,2.42,EC,1712061588
48,ribeira grande,38.5167,-28.7,17.370000000000005,82,40,10.29,PT,1712061481
49,bethel,41.3712,-73.414,8.04000000000002,74,100,2.57,US,1712061472
50,hermanus,-34.4187,19.2345,22.25999999999999,66,22,2.82,ZA,1712061468
51,vorgashor,67.5833,63.95,-7.399999999999977,95,100,3.36,RU,1712061589
52,codrington,-38.2667,141.9667,14.430000000000007,71,100,3.93,AU,1712061589
53,iqaluit,63.7506,-68.5145,0.0,93,100,7.72,CA,1712061469
54,nurota,40.5614,65.6886,14.600000000000023,35,100,3.07,UZ,1712061589
55,vilyuysk,63.7553,121.6247,-4.2900000000000205,98,98,0.89,RU,1712061590
56,fisterra,42.9049,-9.2629,14.449999999999989,95,100,16.31,ES,1712061479
57,invercargill,-46.4,168.35,9.600000000000023,93,100,0.89,NZ,1712061477
58,ahar,38.4774,47.0699,16.19999999999999,33,100,2.51,IR,1712061590
59,west island,-12.1568,96.8225,28.139999999999986,74,40,4.12,CC,1712061470
60,vadso,70.0744,29.7487,-6.360000000000014,63,20,6.69,NO,1712061474
61,san patricio,28.017,-97.5169,23.94999999999999,48,60,5.34,US,1712061591
62,georgetown,5.4112,100.3354,31.120000000000005,70,20,2.57,MY,1712061531
63,juneau,58.3019,-134.4197,0.37999999999999545,97,100,0.0,US,1712061591
64,zouerate,22.7187,-12.4521,33.10000000000002,13,0,4.53,MR,1712061591
65,santa terezinha,-29.9002,-50.0904,22.579999999999984,77,100,5.9,BR,1712061468
66,puerto armuelles,8.2833,-82.8667,26.24000000000001,78,58,1.79,PA,1712061592
67,bac lieu,9.285,105.7244,28.519999999999982,71,6,3.64,VN,1712061592
68,edinburgh of the seven seas,-37.0676,-12.3116,17.279999999999973,91,100,9.68,SH,1712061469
69,les cayes,18.2,-73.75,25.680000000000007,76,100,3.77,HT,1712061592
70,kingston,17.997,-76.7936,26.680000000000007,74,20,1.54,JM,1712061251
71,yeniseysk,58.4497,92.1703,0.12000000000000455,100,100,4.02,RU,1712061593
72,mount isa,-20.7333,139.5,28.019999999999982,61,75,7.2,AU,1712061472
73,petite riviere,-20.1894,57.4453,26.100000000000023,88,100,6.49,MU,1712061594
74,khalabat,34.06,72.8894,23.879999999999995,38,100,0.85,PK,1712061594
75,yellowknife,62.456,-114.3525,-13.560000000000002,85,75,1.03,CA,1712061594
76,saudarkrokur,65.7461,-19.6394,-1.1899999999999977,61,3,1.88,IS,1712061594
77,bredasdorp,-34.5322,20.0403,23.279999999999973,46,2,5.83,ZA,1712061480
78,yesilyurt,38.2972,38.2497,24.120000000000005,25,5,1.4,TR,1712061595
79,orangeburg,33.4918,-80.8557,19.060000000000002,88,0,2.06,US,1712061595
80,bilibino,68.0546,166.4372,-27.120000000000005,89,19,1.96,RU,1712061483
81,wanning,18.8003,110.3967,25.310000000000002,90,0,4.37,CN,1712061595
82,utrik,11.2278,169.8474,26.970000000000027,75,100,8.9,MH,1712061482
83,sanming,26.2486,117.6186,23.779999999999973,84,3,1.82,CN,1712061595
84,margaret river,-33.95,115.0667,14.54000000000002,70,0,6.7,AU,1712061470
85,crane,31.3974,-102.3501,9.949999999999989,49,0,4.67,US,1712061596
86,tiksi,71.6872,128.8694,-23.19999999999999,93,13,8.32,RU,1712061477
87,lazaro cardenas,17.9583,-102.2,22.089999999999975,80,98,1.56,MX,1712061481
88,tsaratanana,-16.7833,47.65,29.24000000000001,67,74,4.26,MG,1712061597
89,fedorovskiy,45.0972,40.9517,25.629999999999995,25,11,0.82,RU,1712061597
90,udachny,66.4167,112.4,-20.860000000000014,89,53,3.1,RU,1712061470
91,kristiansund,63.1115,7.732,3.180000000000007,64,75,10.29,NO,1712061597
92,khorramabad,33.4878,48.3558,22.939999999999998,17,20,5.14,IR,1712061598
93,sandwip,22.4678,91.4561,29.170000000000016,87,48,7.26,BD,1712061598
94,ulladulla,-35.35,150.4667,13.350000000000023,63,0,1.7,AU,1712061598
95,albina,5.5,-54.05,31.49000000000001,57,63,2.72,SR,1712061598
96,campbellsville,37.3434,-85.3419,20.680000000000007,82,100,4.47,US,1712061598
97,buka,40.8108,69.1986,16.94999999999999,44,100,3.01,UZ,1712061599
98,nabire,-3.3667,135.4833,25.839999999999975,93,100,0.26,ID,1712061599
99,inari,68.906,27.0288,-5.740000000000009,70,5,2.79,FI,1712061599
100,saraktash,51.7866,51.7866,10.829999999999984,90,69,4.69,RU,1712061599
101,pacific grove,36.6177,-121.9166,13.839999999999975,83,0,0.45,US,1712061600
102,thompson,55.7435,-97.8558,-2.759999999999991,74,100,1.03,CA,1712061487
103,turan,16.0678,108.2208,28.139999999999986,83,20,2.57,VN,1712061600
104,la ronge,55.1001,-105.2842,-3.7099999999999795,80,20,0.51,CA,1712061601
105,tolanaro,-25.0319,46.9987,25.189999999999998,73,75,6.17,MG,1712061601
106,st. john's,47.5649,-52.7093,2.4599999999999795,93,100,6.71,CA,1712061308
107,zheleznodorozhnyy,55.7503,38.0042,24.25,81,100,2.68,RU,1712061601
108,saipan,15.1355,145.701,27.730000000000018,1,75,7.2,MP,1712061473
109,aban,56.67,96.06,-0.07999999999998408,99,100,2.39,RU,1712061602
110,nicoya,10.1483,-85.452,26.189999999999998,57,5,1.41,CR,1712061602
111,caratinga,-19.7897,-42.1392,23.05000000000001,89,98,1.55,BR,1712061602
112,canto do buriti,-8.11,-42.9444,31.79000000000002,50,94,1.44,BR,1712061602
113,kita,13.0349,-9.4895,44.72000000000003,13,3,0.57,ML,1712061603
114,east london,-33.0153,27.9116,23.670000000000016,60,0,4.63,ZA,1712061603
115,whitehorse,60.7161,-135.0538,-2.420000000000016,100,75,1.54,CA,1712061603
116,longyearbyen,78.2186,15.6401,-15.939999999999998,60,20,5.14,SJ,1712061294
117,hazaribagh,23.9833,85.35,29.430000000000007,18,99,2.96,IN,1712061604
118,haiku-pauwela,20.9219,-156.3051,21.839999999999975,88,40,7.2,US,1712061604
119,puerto natales,-51.7236,-72.4875,5.399999999999977,81,75,3.09,CL,1712061479
120,iskateley,67.6803,53.1512,-5.949999999999989,94,96,5.36,RU,1712061604
121,maumere,-8.6199,122.2111,27.470000000000027,83,100,2.92,ID,1712061605
122,boysun,38.2061,67.1986,8.699999999999989,73,100,1.06,UZ,1712061605
123,carnarvon,-24.8667,113.6333,28.25999999999999,57,6,8.9,AU,1712061605
124,dudinka,69.4058,86.1778,-9.470000000000027,90,100,6.26,RU,1712061605
125,kapa'a,22.0752,-159.319,23.329999999999984,78,40,8.75,US,1712061481
126,el ksour,35.8961,8.8849,18.75999999999999,31,0,2.27,TN,1712061606
127,papatowai,-46.5619,169.4708,10.45999999999998,90,100,1.85,NZ,1712061606
128,midvagur,62.0511,-7.1939,5.610000000000014,48,75,7.72,FO,1712061606
129,chegdomyn,51.1167,133.0167,-4.759999999999991,99,100,0.88,RU,1712061606
130,port mathurin,-19.6833,63.4167,26.829999999999984,82,97,7.08,MU,1712061607
131,weiser,44.251,-116.9693,8.360000000000014,79,2,0.45,US,1712061607
132,minas de marcona,-15.2119,-75.1103,18.189999999999998,76,17,3.04,PE,1712061607
133,es castell,39.8795,4.2854,18.529999999999973,59,0,4.12,ES,1712061607
134,champerico,14.3,-91.9167,26.70999999999998,74,5,3.16,GT,1712061607
135,aasiaat,68.7098,-52.8699,-6.360000000000014,84,100,1.71,GL,1712061608
136,maues,-3.3836,-57.7186,26.019999999999982,93,100,1.05,BR,1712061608
137,severo-yeniseyskiy,60.3725,93.0408,-2.8600000000000136,74,94,2.24,RU,1712061608
138,gorom-gorom,14.4439,-0.2361,43.360000000000014,8,96,7.48,BF,1712061608
139,cabo san lucas,22.8909,-109.9124,17.79000000000002,63,0,1.79,MX,1712061449
140,kavieng,-2.5744,150.7967,28.05000000000001,81,74,4.94,PG,1712061609
141,tuxpan,19.55,-103.4,15.449999999999989,83,100,1.09,MX,1712061609
142,keflavik,64.0049,-22.5624,4.100000000000023,48,75,6.69,IS,1712061609
143,tazovsky,67.4667,78.7,-9.889999999999986,91,100,5.57,RU,1712061484
144,porto-vecchio,41.591,9.2795,19.889999999999986,34,0,8.23,FR,1712061610
145,narasannapeta,18.4167,84.05,28.79000000000002,73,52,6.01,IN,1712061610
146,tura,25.5198,90.2201,25.0,23,0,0.68,IN,1712061610
147,sake,-1.5736,29.045,20.600000000000023,93,99,1.53,CD,1712061611
148,holualoa,19.6228,-155.9522,21.060000000000002,84,75,2.57,US,1712061611
149,aktau,43.65,51.2,19.470000000000027,41,0,4.61,KZ,1712061611
150,klyuchi,52.2667,79.1667,3.0,97,100,3.3,RU,1712061611
151,kuanda,56.3161,116.0806,-8.95999999999998,85,65,0.59,RU,1712061612
152,coquimbo,-29.9533,-71.3436,15.0,94,75,2.57,CL,1712061612
153,sawakin,19.1059,37.3321,29.389999999999986,70,20,6.21,SD,1712061612
154,isafjordur,66.0755,-23.124,-0.8299999999999841,59,75,4.12,IS,1712061612
155,salalah,17.0151,54.0924,31.19999999999999,45,0,3.6,OM,1712061613
156,lihue,21.9789,-159.3672,22.920000000000016,77,40,8.75,US,1712061613
157,san antonio de pale,-1.4014,5.6325,29.069999999999993,71,64,1.18,GQ,1712061613
158,kone,-21.0595,164.8658,22.389999999999986,90,3,2.15,NC,1712061613
159,aldinga beach,-35.2793,138.4604,17.610000000000014,68,52,3.05,AU,1712061397
160,ballina,-28.8667,153.5667,22.20999999999998,86,8,4.94,AU,1712061614
161,chibougamau,49.9168,-74.3659,-8.060000000000002,73,0,2.06,CA,1712061614
162,mariental,-24.6333,17.9667,32.60000000000002,21,100,3.07,NA,1712061614
163,praia da vitoria,38.7333,-27.0667,19.29000000000002,68,20,13.7,PT,1712061614
164,medina,24.4686,39.6142,22.389999999999986,78,75,10.8,SA,1712061615
165,namibe,-15.1961,12.1522,26.0,74,50,4.31,AO,1712061615
166,arteche,12.2645,125.4048,25.720000000000027,87,100,3.91,PH,1712061615
167,bereznik,62.8551,42.7072,0.25,78,100,3.84,RU,1712061615
168,bennington,42.8781,-73.1968,5.7099999999999795,71,0,0.0,US,1712061615
169,yaren,-0.5472,166.916,27.860000000000014,80,100,2.47,NR,1712061616
170,alofi,-19.0595,-169.9187,27.089999999999975,83,75,6.17,NU,1712061616
171,guatrache,-37.6678,-63.5302,16.189999999999998,50,100,8.5,AR,1712061616
172,port saint john's,-31.6229,29.5448,23.680000000000007,74,83,4.82,ZA,1712061616
173,vilyuchinsk,52.9306,158.4028,1.3000000000000114,79,100,5.27,RU,1712061425
174,monrovia,6.3005,-10.7969,32.01999999999998,71,36,4.76,LR,1712061617
175,altai,46.3722,96.2583,1.8000000000000114,33,100,0.81,MN,1712061617
176,tralee,52.2704,-9.7026,12.29000000000002,76,40,4.63,IE,1712061369
177,divo,5.8397,-5.36,37.420000000000016,40,100,1.0,CI,1712061618
178,portland,45.5234,-122.6762,11.399999999999977,89,75,1.79,US,1712061360
179,luau,-10.7073,22.2247,26.50999999999999,66,99,1.29,AO,1712061618
180,kill devil hills,36.0307,-75.676,12.920000000000016,98,75,3.09,US,1712061581
181,flying fish cove,-10.4217,105.6791,26.970000000000027,83,40,4.12,CX,1712061618
182,petropavlovsk-kamchatsky,53.0452,158.6483,0.4800000000000182,81,0,6.71,RU,1712061478
183,ar rutbah,33.0381,40.2848,27.410000000000025,12,0,2.72,IQ,1712061619
184,amnat charoen,15.9167,104.75,34.05000000000001,31,0,3.33,TH,1712061619
185,naama,33.2667,-0.3167,23.779999999999973,18,82,7.08,DZ,1712061620
186,wailua homesteads,22.0669,-159.378,22.589999999999975,78,40,8.75,US,1712061620
187,yeppoon,-23.1333,150.7333,23.029999999999973,82,1,3.29,AU,1712061620
188,jinghong,21.991,100.7341,26.519999999999982,27,0,2.11,CN,1712061620
189,tual,-5.6667,132.75,29.05000000000001,75,100,2.57,ID,1712061621
190,lensk,60.7253,114.9278,-2.3000000000000114,91,100,4.02,RU,1712061621
191,mahbubabad,17.6167,80.0167,37.26999999999998,20,5,2.7,IN,1712061621
192,antofagasta,-23.65,-70.4,19.75,73,36,0.6,CL,1712061603
193,constitucion,-35.3333,-72.4167,15.300000000000011,55,100,1.41,CL,1712061622
194,touros,-5.1989,-35.4608,31.0,65,100,2.31,BR,1712061246
195,chonchi,-42.6128,-73.8092,10.769999999999982,96,100,5.71,CL,1712061622
196,tabuk,17.4189,121.4443,24.480000000000018,75,0,1.47,PH,1712061622
197,port alfred,-33.5906,26.891,21.360000000000014,71,1,4.92,ZA,1712061623
198,nar'yan-mar,67.6713,53.087,-9.5,84,95,7.71,RU,1712061623
199,klaksvik,62.2266,-6.589,5.660000000000025,61,100,14.57,FO,1712061623
200,kalmunai,7.4167,81.8167,28.80000000000001,76,1,4.38,LK,1712061623
201,bamboo flat,11.7,92.7167,30.19999999999999,66,20,2.06,IN,1712061623
202,thinadhoo,0.5333,72.9333,28.75,72,71,0.96,MV,1712061624
203,uliastay,47.7417,96.8444,1.990000000000009,47,100,2.55,MN,1712061624
204,badger,64.8,-147.5333,-10.420000000000016,75,100,6.69,US,1712061624
205,mantua,45.1667,10.7833,21.310000000000002,55,0,3.13,IT,1712061624
206,igarka,67.4667,86.5833,-8.439999999999998,92,100,1.85,RU,1712061625
207,miragoane,18.4423,-73.0876,25.889999999999986,71,22,1.08,HT,1712061625
208,khovd,48.0056,91.6419,4.75,35,35,1.21,MN,1712061625
209,waddan,29.1614,16.139,34.52999999999997,7,0,4.94,LY,1712061625
210,rabaul,-4.1967,152.1721,27.529999999999973,79,28,1.08,PG,1712061625
211,baruun-urt,46.6806,113.2792,0.5199999999999818,40,22,2.05,MN,1712061626
212,antsiranana,-12.2787,49.2917,30.569999999999993,70,75,5.14,MG,1712061626
213,palmer,42.1584,-72.3287,7.449999999999989,65,100,1.34,US,1712061626
214,porto novo,6.4965,2.6036,34.05000000000001,57,57,5.17,BJ,1712061626
215,goondiwindi,-28.55,150.3167,23.889999999999986,63,30,2.18,AU,1712061627
216,montepuez,-13.1256,38.9997,25.810000000000002,78,98,2.91,MZ,1712061627
217,grand-bassam,5.2118,-3.7388,32.129999999999995,67,77,4.29,CI,1712061627
218,happy valley-goose bay,53.3168,-60.3315,1.3199999999999932,86,75,5.66,CA,1712061627
219,anadyr,64.75,177.4833,-19.569999999999993,83,100,5.0,RU,1712061481
220,oriximina,-1.7656,-55.8661,28.839999999999975,69,91,1.81,BR,1712061425
221,enewetak,11.3474,162.3373,26.99000000000001,81,79,8.89,MH,1712061628
222,susuman,62.7833,148.1667,-19.30000000000001,87,10,1.79,RU,1712061479
223,tanumah,27.1,44.1333,27.74000000000001,14,100,3.04,SA,1712061628
224,lys'va,58.1086,57.8053,3.6399999999999864,100,100,5.17,RU,1712061541
225,mvomero,-6.25,38.6667,29.230000000000018,81,100,1.84,TZ,1712061629
226,karachi,24.9056,67.0822,28.05000000000001,44,28,6.69,PK,1712061608
227,berezovyy,51.6667,135.7,-3.1299999999999955,89,63,1.73,RU,1712061629
228,galappo,-4.2667,35.85,24.45999999999998,63,59,2.53,TZ,1712061629
229,hami,42.8,93.45,12.240000000000009,37,100,4.04,CN,1712061629
230,linxia chengguanzhen,35.6003,103.2064,9.370000000000005,59,100,2.87,CN,1712061557
231,hutchinson island south,27.2995,-80.2205,23.50999999999999,91,0,0.45,US,1712061630
232,sao joao da barra,-21.6403,-41.0511,27.19999999999999,76,19,2.33,BR,1712061630
233,rundu,-17.9333,19.7667,30.480000000000018,38,100,4.44,NA,1712061630
234,concordia,-31.393,-58.0209,15.589999999999975,92,100,5.14,AR,1712061335
235,maun,-19.9833,23.4167,32.52999999999997,28,100,1.91,BW,1712061430
236,iturama,-19.7281,-50.1956,24.75999999999999,84,91,1.3,BR,1712061497
237,ilha de mocambique,-15.0342,40.7358,28.810000000000002,73,13,5.2,MZ,1712061631
238,port lincoln,-34.7333,135.8667,16.50999999999999,71,100,4.09,AU,1712061378
239,rio gallegos,-51.6226,-69.2181,7.180000000000007,76,20,6.17,AR,1712061281
240,villacanas,39.6237,-3.3381,14.769999999999982,47,100,5.69,ES,1712061632
241,calbuco,-41.768,-73.1273,11.70999999999998,89,100,14.84,CL,1712061632
242,lata,40.1629,-8.3327,14.550000000000011,75,100,6.52,PT,1712061632
243,pantabangan,15.8113,121.1443,21.230000000000018,85,13,2.66,PH,1712061632
244,barra de santo antonio,-9.4047,-35.5072,29.75,64,64,1.65,BR,1712061542
245,fale old settlement,-9.3852,-171.2468,29.29000000000002,74,5,2.63,TK,1712061633
246,vernon,50.2581,-119.2691,10.870000000000005,60,100,4.63,CA,1712061425
247,vila velha,-20.3297,-40.2925,28.120000000000005,76,20,1.54,BR,1712061090
248,robertsport,6.7533,-11.3686,28.360000000000014,79,18,4.98,LR,1712061633
249,bairnsdale,-37.8333,147.6167,15.740000000000009,80,82,0.45,AU,1712061634
250,pirapemas,-3.7267,-44.2233,30.19999999999999,69,95,1.92,BR,1712061634
251,kostomuksha,64.571,30.5767,-3.7200000000000273,80,100,4.02,RU,1712061634
252,leh,34.1667,77.5833,-5.079999999999984,61,95,1.07,IN,1712061571
253,el calafate,-50.3408,-72.2768,6.100000000000023,94,100,4.48,AR,1712061451
254,tamanrasset,22.785,5.5228,33.10000000000002,4,0,4.12,DZ,1712061635
255,york beach,43.1717,-70.6089,6.509999999999991,77,100,6.51,US,1712061635
256,avarua,-21.2078,-159.775,27.180000000000007,78,75,2.57,CK,1712061635
257,arraial do cabo,-22.9661,-42.0278,27.069999999999993,69,0,3.6,BR,1712061558
258,thunder bay,48.4001,-89.3168,-6.860000000000014,86,75,1.03,CA,1712061635
259,san pedro pochutla,15.7333,-96.4667,23.95999999999998,73,85,2.24,MX,1712061636
260,saacow,1.6279,42.4407,36.26999999999998,36,84,3.54,SO,1712061636
261,katsuura,35.1333,140.3,15.759999999999991,79,100,4.89,JP,1712061636
262,ancud,-41.8697,-73.8203,13.930000000000007,90,100,12.36,CL,1712061480
263,salahonda,2.1019,-78.7217,25.629999999999995,87,100,4.76,CO,1712061636
264,chinde,26.8418,88.0763,19.430000000000007,35,0,1.97,NP,1712061637
265,acaponeta,22.4964,-105.3594,17.170000000000016,88,0,0.57,MX,1712061637
266,maloye ganyushkino,46.6,49.2667,15.310000000000002,42,6,6.36,KZ,1712061637
267,pitea,65.3172,21.4794,-4.800000000000011,79,54,4.36,SE,1712061637
268,ta`u,-14.2336,-169.5144,29.24000000000001,80,100,8.16,AS,1712061638
269,tottori,35.5,134.2333,14.189999999999998,67,0,2.06,JP,1712061605
270,ulety,51.3572,112.4849,-5.050000000000011,46,3,4.5,RU,1712061638
271,kralendijk,12.15,-68.2667,28.139999999999986,74,75,6.17,BQ,1712061604
272,timimoun,29.2639,0.231,30.360000000000014,12,0,9.77,DZ,1712061638
273,kamloops,50.6665,-120.3192,12.699999999999989,54,75,1.54,CA,1712061639
274,ceeldheer,3.8488,47.1806,31.20999999999998,59,86,6.03,SO,1712061639
275,lupane,-18.9315,27.807,31.29000000000002,30,100,2.74,ZW,1712061639
276,saint-philippe,-21.3585,55.7679,24.920000000000016,92,100,7.17,RE,1712061475
277,villa regina,-39.1,-67.0667,17.920000000000016,23,100,2.24,AR,1712061639
278,xiongzhou,25.1167,114.3,24.399999999999977,82,72,2.1,CN,1712061639
279,turpan,42.9333,89.1667,17.220000000000027,31,100,2.77,CN,1712061640
280,adamovka,51.5223,59.9396,3.930000000000007,100,100,2.3,RU,1712061640
281,karratha,-20.7377,116.8463,31.99000000000001,49,21,2.75,AU,1712061496
282,bonthe,7.5264,-12.505,31.120000000000005,66,98,5.33,SL,1712061640
283,cole harbour,44.6724,-63.4751,4.550000000000011,73,20,4.63,CA,1712061341
284,murghob,38.1702,73.9667,-2.3500000000000227,42,80,2.52,TJ,1712061641
285,jamestown,42.097,-79.2353,7.660000000000025,99,100,4.63,US,1712061508
286,sangkhla buri,15.1555,98.4536,26.350000000000023,53,5,0.36,TH,1712061641
287,conception bay south,47.4999,-52.9981,2.329999999999984,94,100,7.34,CA,1712061641
288,garachico,28.7781,-17.7646,19.20999999999998,64,40,2.06,ES,1712061641
289,lucas,41.6501,-83.6666,6.470000000000027,87,100,5.66,US,1712061642
290,sao vicente,-23.9631,-46.3919,30.139999999999986,57,75,0.0,BR,1712061361
291,tuy hoa,13.0833,109.3,26.120000000000005,82,1,4.23,VN,1712061642
292,odienne,9.51,-7.5692,41.73000000000002,20,5,1.87,CI,1712061642
293,daru,-9.0763,143.2092,25.920000000000016,89,93,1.45,PG,1712061642
294,yigo village,13.5361,144.8886,26.769999999999982,80,20,5.66,GU,1712061643
295,north bondi,-33.8824,151.2769,21.089999999999975,57,0,8.75,AU,1712061643
296,malinyi,-8.9333,36.1333,29.0,75,62,1.1,TZ,1712061643
297,vrangel',42.7297,133.0839,2.339999999999975,67,93,2.97,RU,1712061643
298,lospalos,-8.5186,127.0025,23.420000000000016,93,100,0.3,TL,1712061643
299,geraldton,-28.7667,114.6,23.379999999999995,68,39,6.69,AU,1712061382
300,torghay,49.6339,63.4981,12.110000000000014,64,95,4.48,KZ,1712061644
301,songkhla,6.8333,100.6667,31.180000000000007,77,93,0.92,TH,1712061644
302,howrah,22.5892,88.3103,34.14999999999998,40,26,1.54,IN,1712061598
303,calliope,-24.0,151.2,24.060000000000002,83,40,2.06,AU,1712061644
304,ciudad bolivar,8.1222,-63.5497,29.25999999999999,64,100,5.29,VE,1712061644
305,itabera,-23.8619,-49.1372,26.980000000000018,53,49,1.6,BR,1712061645
306,pangody,65.85,74.4859,-5.0400000000000205,93,100,7.06,RU,1712061476
307,sisimiut,66.9395,-53.6735,-1.9499999999999886,68,99,1.9,GL,1712061469
308,piton saint-leu,-21.2196,55.3151,23.20999999999998,88,40,14.4,RE,1712061645
309,whitby,54.4877,-0.615,14.04000000000002,82,61,1.34,GB,1712061375
310,woolgoolga,-30.1106,153.2007,24.079999999999984,85,25,2.54,AU,1712061646
311,omidiyeh,30.7597,49.705,33.079999999999984,18,20,2.06,IR,1712061646
312,ust-nera,64.5667,143.2,-18.330000000000013,94,80,1.43,RU,1712061646
313,brookings,44.3114,-96.7984,0.36000000000001364,96,0,0.0,US,1712061646
314,baley,51.6,116.6333,-2.7799999999999727,65,100,3.26,RU,1712061646
315,borogontsy,62.6683,131.1683,-15.54000000000002,100,98,0.93,RU,1712061473
316,al bahah,20.0129,41.4677,16.829999999999984,70,90,4.27,SA,1712061647
317,quellon,-43.1167,-73.6167,10.480000000000018,94,100,13.32,CL,1712061647
318,hasaki,35.7333,140.8333,13.370000000000005,78,100,5.25,JP,1712061647
319,bulnes,-36.7423,-72.2985,13.569999999999993,39,100,4.27,CL,1712061474
320,brisas de zicatela,15.8369,-97.0419,25.819999999999993,70,100,3.72,MX,1712061647
321,polyarnyy,69.1989,33.4478,-6.439999999999998,76,78,6.64,RU,1712061648
322,fort st. john,56.2499,-120.8529,5.089999999999975,70,75,6.17,CA,1712061648
323,suva,-18.1416,178.4415,26.860000000000014,94,40,1.03,FJ,1712061635
324,malango,-2.9627,119.9001,21.689999999999998,98,100,0.68,ID,1712061649
325,turkmenbasy,40.0222,52.9552,18.579999999999984,45,0,5.14,TM,1712061649
326,qarazhal,48.0078,70.7903,10.060000000000002,55,26,4.3,KZ,1712061649
327,prince rupert,54.3161,-130.3201,6.199999999999989,93,100,4.12,CA,1712061649
328,puerto baquerizo moreno,-0.9,-89.6,24.579999999999984,79,100,3.14,EC,1712061649
329,kalix,65.853,23.1565,-5.589999999999975,74,35,4.79,SE,1712061650
330,khemisset,33.6667,-6.25,23.899999999999977,45,8,4.27,MA,1712061650
331,marsa alam,25.0757,34.8918,27.430000000000007,57,0,6.24,EG,1712061650
332,kourou,5.1552,-52.6478,30.180000000000007,72,28,4.28,GF,1712061650
333,port douglas,-16.4833,145.4667,25.579999999999984,87,100,4.3,AU,1712061651
334,olonkinbyen,70.9221,-8.7187,-4.9599999999999795,60,98,3.22,SJ,1712061651
335,kerikeri,-35.2268,173.9474,12.879999999999995,88,7,0.98,NZ,1712061651
336,matadi,-5.8167,13.45,34.889999999999986,53,100,1.06,CD,1712061651
337,sao gabriel da cachoeira,-0.1303,-67.0892,24.04000000000002,94,100,1.03,BR,1712061651
338,plettenberg bay,-34.0527,23.3716,20.75999999999999,66,10,6.3,ZA,1712061651
339,bhachau,23.2833,70.35,33.99000000000001,26,100,5.46,IN,1712061652
340,leava,-14.3,-178.1667,29.189999999999998,81,100,8.17,WF,1712061652
341,illizi,26.4833,8.4667,34.04000000000002,5,0,3.1,DZ,1712061652
342,tsiombe,-25.3,45.4833,24.70999999999998,71,42,7.7,MG,1712061652
343,colchani,-20.3,-66.9333,11.939999999999998,34,6,2.18,BO,1712061652
344,ylitornio,66.3089,23.6773,-6.019999999999982,72,84,3.72,FI,1712061653
345,onguday,50.75,86.15,3.1100000000000136,93,100,1.21,RU,1712061653
346,niquelandia,-14.4739,-48.4597,28.19999999999999,74,91,0.37,BR,1712061653
347,bandon,51.7469,-8.7425,9.920000000000016,83,100,5.99,IE,1712061366
348,nova vicosa,-17.8919,-39.3719,29.370000000000005,61,100,1.26,BR,1712061653
349,zeya,53.75,127.2667,-2.910000000000025,94,100,1.47,RU,1712061654
350,kruisfontein,-34.0033,24.7314,21.339999999999975,56,0,11.58,ZA,1712061654
351,lorengau,-2.0226,147.2712,27.899999999999977,83,22,2.7,PG,1712061654
352,burang,30.25,81.1667,-4.610000000000014,77,45,2.56,CN,1712061654
353,coyhaique,-45.5752,-72.0662,6.490000000000009,93,100,1.03,CL,1712061654
354,sterlibashevo,53.4376,55.2578,0.25,100,100,3.1,RU,1712061655
355,banda aceh,5.5577,95.3222,28.439999999999998,78,100,1.02,ID,1712061655
356,odemira,37.598,-8.6397,18.019999999999982,61,100,6.99,PT,1712061655
357,rio grande,-32.035,-52.0986,20.20999999999998,85,100,6.84,BR,1712061544
358,abepura,-2.6333,140.5833,26.600000000000023,94,20,1.03,ID,1712061655
359,novaya igirma,57.1334,103.9112,-9.370000000000005,95,26,1.46,RU,1712061656
360,broome,42.2506,-75.833,5.810000000000002,87,100,3.09,US,1712061656
361,dongcun,36.7767,121.1597,11.680000000000007,98,100,5.75,CN,1712061656
362,ushibukamachi,32.1906,130.0228,16.70999999999998,75,100,8.3,JP,1712061656
363,kurchatov,51.6601,35.6521,23.379999999999995,45,100,7.42,RU,1712061656
364,richards bay,-28.783,32.0377,30.319999999999993,49,1,6.66,ZA,1712061472
365,cidreira,-30.1811,-50.2056,23.49000000000001,71,100,5.89,BR,1712061657
366,urzhar,47.093,81.6294,9.579999999999984,47,9,1.43,KZ,1712061657
367,conceicao da barra,-18.5933,-39.7322,30.720000000000027,59,92,0.54,BR,1712061657
368,ellsworth,44.5434,-68.4195,5.4599999999999795,59,100,4.63,US,1712061657
369,saint-francois,46.4154,3.9054,14.839999999999975,49,0,4.12,FR,1712061658
370,burutu,5.3509,5.5076,33.55000000000001,58,59,5.2,NG,1712061658
371,rouissat,31.9243,5.3502,28.189999999999998,23,0,3.09,DZ,1712061658
372,cholpon-ata,42.6494,77.0823,7.180000000000007,66,68,1.48,KG,1712061658
373,relizane,35.7373,0.556,25.319999999999993,26,60,1.24,DZ,1712061658
374,masvingo,-20.0637,30.8277,27.180000000000007,50,75,4.12,ZW,1712061659
375,madang,-5.2246,145.7966,25.69999999999999,90,100,0.93,PG,1712061659
376,primorsko-akhtarsk,46.0497,38.1747,21.480000000000018,36,43,3.94,RU,1712061659
377,kuvandyk,51.4781,57.3552,5.560000000000002,99,94,0.18,RU,1712061659
378,capao da canoa,-29.7456,-50.0097,22.139999999999986,78,100,5.68,BR,1712061126
379,san rafael,-34.6177,-68.3301,18.029999999999973,34,100,5.66,AR,1712061552
380,bubaque,11.2833,-15.8333,25.50999999999999,64,9,4.1,GW,1712061660
381,page,36.9147,-111.4558,6.639999999999986,52,4,1.34,US,1712061395
382,punaauia,-17.6333,-149.6,25.94999999999999,78,20,1.03,PF,1712061660
383,el nido,11.1858,119.3956,26.649999999999977,80,12,3.89,PH,1712061660
384,al khums,32.6486,14.2619,19.480000000000018,67,0,7.64,LY,1712061661
385,khost,33.3395,69.9204,18.939999999999998,39,90,3.67,AF,1712061661
386,hamilton,39.1834,-84.5333,14.839999999999975,94,100,7.72,US,1712061089
387,keren,15.7778,38.4581,30.980000000000018,12,41,7.31,ER,1712061661
388,smirnovo,54.5125,69.4222,2.160000000000025,86,90,3.34,KZ,1712061662
389,xiaoweizhai,26.1903,107.5125,22.560000000000002,59,2,0.91,CN,1712061662
390,fortaleza,-3.7227,-38.5247,30.269999999999982,74,75,2.57,BR,1712061340
391,kovdor,67.5662,30.4758,-7.850000000000023,67,100,2.08,RU,1712061662
392,alice springs,-23.7,133.8833,21.939999999999998,46,0,3.6,AU,1712061624
393,riberalta,-10.9833,-66.1,24.25999999999999,94,75,3.09,BO,1712061663
394,katabu,-4.9333,122.5167,25.660000000000025,93,100,0.37,ID,1712061663
395,saiha,22.4833,92.9667,23.019999999999982,81,27,0.55,IN,1712061663
396,namtsy,62.7161,129.6658,-13.629999999999995,98,67,2.18,RU,1712061663
397,laojunmiao,39.8333,97.7333,8.279999999999973,35,98,3.55,CN,1712061663
398,kikwit,-5.041,18.8162,32.620000000000005,47,100,0.55,CD,1712061664
399,gubkinskiy,64.434,76.5026,-3.0500000000000114,94,100,4.99,RU,1712061664
400,talakan,50.3167,130.3667,-4.060000000000002,91,77,0.35,RU,1712061664
401,itoman,26.1247,127.6694,25.19999999999999,94,75,6.69,JP,1712061664
402,tabou,4.423,-7.3528,30.920000000000016,69,66,4.39,CI,1712061665
403,khanty-mansiysk,61.0042,69.0019,3.2099999999999795,60,0,7.0,RU,1712061513
404,gharavuti,37.5672,68.4469,16.50999999999999,53,100,1.03,TJ,1712061665
405,barcelos,41.5388,-8.6151,13.230000000000018,93,100,9.12,PT,1712061468
406,baise city,23.8997,106.6133,30.899999999999977,99,25,2.81,CN,1712061666
407,misratah,32.3754,15.0925,19.95999999999998,71,0,8.72,LY,1712061667
408,pemangkat,1.1667,108.9667,27.870000000000005,80,100,0.63,ID,1712061667
409,godmanchester,52.3194,-0.1751,15.399999999999977,67,98,2.68,GB,1712061667
410,namdrik,5.5994,168.1028,28.230000000000018,78,100,8.75,MH,1712061667
411,mhangura,-16.8939,30.1683,25.920000000000016,46,100,1.82,ZW,1712061667
412,teknaf,20.8624,92.3058,26.569999999999993,91,1,2.59,BD,1712061668
413,jorpeland,59.0225,6.0408,10.050000000000011,68,100,2.84,NO,1712061668
414,mabamba,-3.5983,30.5019,24.44999999999999,76,44,1.77,TZ,1712061668
415,bozeman,45.6796,-111.0386,3.829999999999984,70,0,1.54,US,1712061606
416,gao,16.6362,1.637,43.04000000000002,8,36,6.17,ML,1712061668
417,kimbe,-5.5502,150.1429,26.05000000000001,91,99,0.6,PG,1712061669
418,chhor,25.5167,69.7667,36.29000000000002,18,100,7.26,PK,1712061669
419,victorica,-36.2151,-65.4359,17.110000000000014,53,100,11.93,AR,1712061669
420,ust'-ilimsk,58.0006,102.6619,-6.829999999999984,94,100,1.79,RU,1712061619
421,ardesen,41.1911,40.9875,20.079999999999984,45,11,1.22,TR,1712061670
422,selty,57.3132,52.1345,6.25,100,100,4.48,RU,1712061670
423,nemuro,43.3236,145.575,1.0699999999999932,75,5,5.82,JP,1712061670
424,beli,7.8587,10.9719,42.99000000000001,19,99,3.15,NG,1712061670
425,ceelbuur,4.685,46.6176,33.72000000000003,42,89,2.48,SO,1712061670
426,tumen,42.9661,129.8425,5.300000000000011,53,96,1.58,CN,1712061671
427,nadi,-17.8,177.4167,26.149999999999977,89,20,0.0,FJ,1712061671
428,pisco,-13.7,-76.2167,22.180000000000007,88,40,2.57,PE,1712061671
429,salinas,36.6777,-121.6555,13.519999999999982,79,0,5.66,US,1712061388
430,sault ste. marie,46.5168,-84.3333,1.4599999999999795,69,0,5.66,CA,1712061513
431,walvis bay,-22.9575,14.5053,20.680000000000007,64,40,3.09,NA,1712061672
432,maksatikha,57.797,35.8825,17.769999999999982,70,100,2.64,RU,1712061672
433,amga,60.8953,131.9608,-16.779999999999973,100,67,0.63,RU,1712061672
434,mbandaka,0.0487,18.2603,33.389999999999986,47,99,1.11,CD,1712061672
435,nadym,65.5333,72.5167,-3.480000000000018,93,100,9.34,RU,1712061673
436,kenora,49.8167,-94.4337,-2.3100000000000023,63,75,1.54,CA,1712061673
437,bermeo,43.4209,-2.7215,18.25999999999999,52,92,9.82,ES,1712061673
438,berdigestyakh,62.0989,126.6992,-8.860000000000014,97,100,1.6,RU,1712061673
439,washington,47.5001,-120.5015,11.370000000000005,70,9,1.99,US,1712061071
440,sonoita,31.85,-112.8333,12.259999999999991,65,6,0.77,MX,1712061674
441,erdenet,49.0333,104.0833,-1.5199999999999818,61,18,2.17,MN,1712061674
442,vila franca do campo,37.7167,-25.4333,18.420000000000016,99,31,9.23,PT,1712061674
443,jwaneng,-24.6004,24.7303,28.30000000000001,31,100,1.95,BW,1712061674
444,nova borova,50.693,28.6345,20.730000000000018,51,14,12.58,UA,1712061674
445,miringa,10.7312,12.1463,39.629999999999995,9,70,3.8,NG,1712061675
446,pamanukan,-6.2842,107.8106,28.019999999999982,80,100,1.97,ID,1712061675
447,ramshir,30.8946,49.4092,33.06999999999999,14,0,1.73,IR,1712061675
448,calama,-22.4667,-68.9333,12.420000000000016,40,0,5.66,CL,1712061462
449,mikashevichy,52.2173,27.476,24.819999999999993,32,100,5.02,BY,1712061676
450,puerto deseado,-47.7503,-65.8938,11.949999999999989,59,100,8.83,AR,1712061676
451,tashla,51.7716,52.7427,6.579999999999984,95,100,2.94,RU,1712061676
452,sabang,5.8933,95.3214,29.889999999999986,69,95,0.49,ID,1712061676
453,nantucket,41.2835,-70.0995,6.2099999999999795,94,20,1.54,US,1712061497
454,rongelap,11.1635,166.8941,26.99000000000001,80,96,8.22,MH,1712061677
455,nikolayevsk-on-amure,53.1406,140.73,-8.04000000000002,97,57,2.01,RU,1712061677
456,isla mujeres,21.2311,-86.731,27.180000000000007,83,6,6.89,MX,1712061678
457,hammerfest,70.6634,23.6821,-5.600000000000023,79,100,6.17,NO,1712061678
458,eagle pass,28.7091,-100.4995,16.470000000000027,48,20,0.0,US,1712061678
459,ma'ili,21.4219,-158.1803,23.220000000000027,73,0,2.57,US,1712061678
460,urangan,-25.3,152.9,24.149999999999977,84,0,1.79,AU,1712061679
461,ola,59.5833,151.2833,-11.600000000000023,76,4,4.96,RU,1712061679
462,okahandja,-21.9833,16.9167,27.639999999999986,38,100,4.25,NA,1712061679
463,gadzhiyevo,69.2551,33.3362,-6.699999999999989,76,92,6.84,RU,1712061679
464,usogorsk,63.4106,48.6872,0.5199999999999818,93,100,5.02,RU,1712061680
465,beberibe,-4.1797,-38.1306,29.360000000000014,72,100,1.29,BR,1712061680
466,luderitz,-26.6481,15.1594,23.779999999999973,55,0,5.59,NA,1712061680
467,tadine,-21.55,167.8833,23.889999999999986,82,14,4.6,NC,1712061680
468,ishigaki,24.3448,124.1572,25.220000000000027,100,100,6.17,JP,1712061681
469,dobrich,43.5667,27.8333,24.970000000000027,38,100,7.35,BG,1712061681
470,laguna,38.421,-121.4238,12.069999999999993,82,0,3.09,US,1712061002
471,mankono,8.0586,-6.1897,40.629999999999995,26,15,0.9,CI,1712061681
472,mejit,10.2753,170.8646,26.920000000000016,79,100,8.46,MH,1712061682
473,xuchang,34.0167,113.8167,12.810000000000002,81,100,4.16,CN,1712061682
474,o rosal,41.9354,-8.8368,14.160000000000025,94,100,11.71,ES,1712061682
475,black point,-34.6187,137.8972,16.110000000000014,68,31,4.15,AU,1712061683
476,taoudenni,22.6783,-3.9836,40.160000000000025,8,5,0.84,ML,1712061683
477,hadibu,12.65,54.0333,28.560000000000002,68,47,3.27,YE,1712061683
478,greymouth,-42.4667,171.2,12.430000000000007,84,93,1.85,NZ,1712061458
479,bejaia,36.7559,5.0843,19.75,64,0,3.6,DZ,1712061683
480,salinas de hidalgo,22.6333,-101.7167,13.0,68,100,3.41,MX,1712061684
481,alibag,18.6411,72.8792,29.189999999999998,65,26,4.47,IN,1712061684
482,hirara,24.8,125.2833,25.30000000000001,94,100,8.23,JP,1712061684
483,thames,-37.1333,175.5333,12.240000000000009,89,0,0.83,NZ,1712061684
484,archangelos,36.2149,28.1149,23.139999999999986,32,77,3.98,GR,1712061685
485,twon-brass,4.3151,6.2418,30.100000000000023,74,72,4.48,NG,1712061685
486,san andres,12.5847,-81.7006,28.160000000000025,74,20,2.57,CO,1712061678
487,at taj,24.2049,23.2857,32.30000000000001,11,0,5.36,LY,1712061685
488,quba,41.3626,48.5152,17.579999999999984,54,45,2.76,AZ,1712061686
489,berettyoujfalu,47.2167,21.55,14.310000000000002,55,100,8.54,HU,1712061686
490,la palma,33.8464,-118.0467,14.439999999999998,86,0,2.06,US,1712061686
491,santa ana,33.7456,-117.8678,13.740000000000009,81,0,2.06,US,1712061500
492,alto barinas,8.5931,-70.2261,27.930000000000007,64,83,2.43,VE,1712061686
493,vallenar,-28.5708,-70.7581,20.95999999999998,64,0,1.56,CL,1712061687
494,chunskiy,56.0815,99.6342,-3.3600000000000136,90,94,2.42,RU,1712061687
495,angel r. cabada,18.5833,-95.4333,25.80000000000001,75,26,6.38,MX,1712061687
496,mbanza kongo,-6.267,14.2401,30.529999999999973,59,100,1.95,AO,1712061687
497,kirensk,57.7853,108.1119,-8.759999999999991,94,17,1.34,RU,1712061688
498,queenstown,-31.8976,26.8753,29.19999999999999,15,0,8.25,ZA,1712061476
499,swakopmund,-22.6833,14.5333,20.620000000000005,88,58,2.98,NA,1712061688
500,tofol,5.3248,163.0078,28.019999999999982,81,100,8.86,FM,1712061688
501,hawera,-39.5917,174.2833,12.5,92,2,2.27,NZ,1712061688
502,phang nga,8.4509,98.5298,30.170000000000016,68,95,1.67,TH,1712061689
503,tengrela,10.4869,-6.4097,42.69,17,1,2.07,CI,1712061689
504,jining,35.405,116.5814,17.079999999999984,62,100,2.48,CN,1712061689
505,yarmouth,41.7057,-70.2286,6.240000000000009,93,0,2.68,US,1712061689
506,stephenville,32.2207,-98.2023,12.800000000000011,72,0,5.14,US,1712061690
507,faya-largeau,17.9257,19.1043,38.14999999999998,6,97,5.98,TD,1712061690
508,ma'rib,15.4591,45.3253,22.019999999999982,68,100,2.71,YE,1712061690
509,areia branca,-4.9561,-37.1369,30.25999999999999,74,100,1.32,BR,1712061690
510,justo daract,-33.8594,-65.1828,20.04000000000002,49,100,6.68,AR,1712061478
511,la'ie,21.6477,-157.9253,23.180000000000007,79,100,4.02,US,1712061691
512,colonia,50.9333,6.95,12.899999999999977,84,100,7.72,DE,1712061233
513,mana,5.6592,-53.7767,29.79000000000002,69,86,4.83,GF,1712061691
514,pinos,22.3,-101.5667,9.920000000000016,68,100,3.0,MX,1712061691
515,ramhormoz,31.28,49.6035,29.600000000000023,20,1,2.42,IR,1712061692
516,vorkuta,67.5,64.0,-7.019999999999982,96,100,3.2,RU,1712061533
517,santyoku,37.4406,129.1708,10.639999999999986,78,100,1.87,KR,1712061692
518,coronel dorrego,-38.7187,-61.2873,16.870000000000005,48,94,7.97,AR,1712061677
519,kingscliff,-28.2667,153.5667,22.24000000000001,84,8,2.06,AU,1712061692
520,port macquarie,-31.4333,152.9167,18.980000000000018,92,43,2.07,AU,1712061598
521,sines,37.9562,-8.8698,18.089999999999975,74,100,6.71,PT,1712061693
522,syracuse,37.0881,15.2792,21.920000000000016,68,100,4.04,IT,1712061693
523,maddela,16.3414,121.6849,21.310000000000002,91,11,2.27,PH,1712061693
524,freetown,8.484,-13.2299,27.99000000000001,69,20,5.14,SL,1712061693
525,west end,26.6833,-78.9667,22.139999999999986,71,100,6.71,BS,1712061694
526,aswan,24.0934,32.907,35.31,11,0,3.49,EG,1712061694
527,sanctuary point,-35.1114,150.629,20.00999999999999,57,0,3.33,AU,1712061694
528,harper,4.375,-7.7169,30.79000000000002,70,100,4.25,LR,1712061694
529,ziro,27.6333,93.8333,14.560000000000002,90,88,1.12,IN,1712061695
530,bardai,11.65,7.2333,39.5,7,100,3.4,NG,1712061695
531,kamensk-ural'skiy,56.4185,61.9329,7.329999999999984,98,93,5.16,RU,1712061695
532,fuglafjordur,62.244,-6.814,5.410000000000025,61,100,13.58,FO,1712061695
533,kozluk,38.1938,41.4885,24.589999999999975,33,4,2.5,TR,1712061695
534,chandler,33.3062,-111.8412,10.970000000000027,86,0,3.09,US,1712061439
535,riyadh,24.6877,46.7219,28.230000000000018,28,65,0.64,SA,1712061654
536,saint-pierre,-21.3393,55.4781,24.970000000000027,88,40,14.4,RE,1712061696
537,armacao de buzios,-22.7469,-41.8817,29.180000000000007,79,100,2.76,BR,1712061428
538,tripoli,32.8752,13.1875,19.850000000000023,59,0,5.91,LY,1712061697
539,hastings,50.8552,0.5729,15.259999999999991,81,99,9.59,GB,1712061697
540,spanish wells,26.323,-81.7957,22.360000000000014,92,0,2.06,US,1712061697
541,fortuna,40.5982,-124.1573,8.339999999999975,100,75,0.0,US,1712061697
542,notodden,59.5594,9.2585,7.240000000000009,56,40,4.63,NO,1712061697
543,sandnessjoen,66.0217,12.6316,-0.7300000000000182,47,40,3.09,NO,1712061698
544,mahibadhoo,3.7833,72.9667,29.399999999999977,66,48,1.13,MV,1712061470
545,bangassou,4.7413,22.8184,37.69,25,99,1.41,CF,1712061698
546,darwin,-12.4611,130.8418,27.139999999999986,90,0,2.57,AU,1712061602
547,new plymouth,-39.0667,174.0833,13.100000000000023,69,4,2.1,NZ,1712061664
548,qui nhon,13.7667,109.2333,26.49000000000001,86,6,6.23,VN,1712061621
549,pathein,16.7833,94.7333,26.529999999999973,74,6,4.74,MM,1712061699
550,dakhla,23.6848,-15.958,23.160000000000025,64,0,9.26,EH,1712061699
551,quezon,7.7303,125.0989,24.029999999999973,84,74,2.03,PH,1712061699
552,muisne,0.6,-80.0333,23.930000000000007,95,100,2.87,EC,1712061699
553,oncativo,-31.9135,-63.682,17.189999999999998,60,0,4.23,AR,1712061700
554,hotan,37.0997,79.9269,16.49000000000001,13,100,6.14,CN,1712061700
555,lockwood,45.8191,-108.4149,6.060000000000002,68,20,9.26,US,1712061700
556,perry,37.2506,-83.1999,23.25,83,100,5.7,US,1712061700
557,ratnagiri,16.9833,73.3,27.819999999999993,67,96,3.59,IN,1712061700
558,djambala,-2.5447,14.7533,31.80000000000001,42,93,1.96,CG,1712061701
559,mul,20.0667,79.6667,37.43000000000001,15,2,2.97,IN,1712061701
560,dwarka,22.2394,68.9678,26.730000000000018,67,100,5.68,IN,1712061560
561,poso,-1.3959,120.7524,25.980000000000018,89,100,0.9,ID,1712061701
562,napili-honokowai,20.9708,-156.6705,22.660000000000025,91,100,8.04,US,1712061702
563,beira,-19.8436,34.8389,30.19999999999999,89,20,5.14,MZ,1712061702
564,sorong,-0.8833,131.25,27.980000000000018,80,100,7.11,ID,1712061702
565,lobujya,27.95,86.8167,-8.149999999999977,84,62,1.2,NP,1712061702
566,acarau,-2.8856,-40.12,29.100000000000023,74,94,2.25,BR,1712061702
567,juegang,32.3174,121.1855,16.55000000000001,98,100,2.05,CN,1712061703
568,shigony,53.3875,48.6777,13.009999999999991,79,21,5.2,RU,1712061703
569,gobabis,-22.45,18.9667,26.279999999999973,39,100,4.1,NA,1712061703
570,island harbour,50.724,-1.2758,14.699999999999989,83,100,4.02,GB,1712061483
571,saint-laurent-du-maroni,5.5039,-54.0289,31.379999999999995,57,65,2.75,GF,1712061703
572,sofo-birnin-gwari,11.0154,6.7804,41.0,10,95,2.13,NG,1712061704
573,argo,37.6333,22.7333,21.69999999999999,25,100,4.89,GR,1712061704
574,tago,9.0211,126.2317,26.170000000000016,82,36,2.59,PH,1712061704
575,east grand forks,47.93,-97.0245,-0.7200000000000273,86,20,2.57,US,1712061704
576,vuktyl,63.8567,57.3094,1.3199999999999932,97,100,7.6,RU,1712061704
577,dunedin,-45.8742,170.5036,12.819999999999993,90,78,4.02,NZ,1712061664
578,lusambo,-4.9667,23.45,22.810000000000002,97,100,0.58,CD,1712061705
579,bikenibeu village,1.3673,173.1241,26.129999999999995,94,75,1.54,KI,1712061705
580,sedalia,38.7045,-93.2283,9.279999999999973,100,100,7.72,US,1712061306
581,alto piquiri,-24.0281,-53.4406,25.879999999999995,70,11,1.3,BR,1712061362
582,juan diaz covarrubias,18.1628,-95.2069,26.29000000000002,72,74,6.62,MX,1712061706
583,yoichi,43.2039,140.7703,1.1899999999999977,77,6,3.39,JP,1712061706
584,murzuq,25.9155,13.9184,33.98000000000002,7,0,4.67,LY,1712061706
